{
    "zone": [{
        "groupName": "A CHANCE TO LIVE AGAIN - A Chance To Live Again",
        "locationName": "SRO Building",
        "streetAddress": "109 W 129th St, New York, NY 10027, USA",
        "lat": 40.8107528,
        "long": -73.9441252,
        "meetingNotes": null,
        "meetingTimes": "Wednesdays,  6:00 PM to 7:00 PM (BB = Big Book meeting),  Mondays,  7:00 PM to 8:00 PM (B = Beginners meeting),"
    }, {
        "groupName": "AA IT WORKS  II - AA It Works II",
        "locationName": "Union Baptist Church",
        "streetAddress": "240 W 145th St, New York, NY 10039, USA",
        "lat": 40.8220986,
        "long": -73.9408904,
        "meetingNotes": "Thu=Altern.BB, Living Sober &amp; Other A.A. Literature. Fri.=Alternates between Step &amp; Tradition.",
        "meetingTimes": "Wednesdays,  10:00 AM to 11:00 AM (B = Beginners meeting),  Thursdays,  10:00 AM to 11:00 AM (BB = Big Book meeting),  Fridays,  10:00 AM to 11:00 AM (S = Step meeting),  Tuesdays,  10:00 AM to 11:00 AM (OD = Open Discussion meeting),"
    }, {
        "groupName": "ATTITUDE ADJUSTMENT - Attitude Adjustment",
        "locationName": "Our Lady of Lourdes Church",
        "streetAddress": "469 W 142nd St, New York, NY 10031, USA",
        "lat": 40.823305,
        "long": -73.948402,
        "meetingNotes": "Topic 1st Saturday.",
        "meetingTimes": "Saturdays,  7:30 AM to 8:30 AM (OD = Open Discussion meeting),"
    }, {
        "groupName": "CONVENT -",
        "locationName": "St. Phillip Church",
        "streetAddress": "204 W 134th St, New York, NY 10030, USA",
        "lat": 40.8146357,
        "long": -73.9450779,
        "meetingNotes": "B-3rd Saturday",
        "meetingTimes": "Saturdays,  11:30 AM to 1:00 PM (OD = Open Discussion meeting),"
    }, {
        "groupName": "FELLOWSHIP AT NOON - Fellowship At Noon",
        "locationName": "Spiritual Renewal Church",
        "streetAddress": "2044 Adam Clayton Powell Jr Blvd, New York, NY 10027, USA",
        "lat": 40.807284,
        "long": -73.94995949999999,
        "meetingNotes": "T If there is a fifth Wednesday.",
        "meetingTimes": "Mondays,  12:15 PM to 1:15 PM (B = Beginners meeting),  Wednesdays,  12:15 PM to 1:15 PM (S = Step meeting),  Fridays,  12:15 PM to 1:15 PM (OD = Open Discussion meeting),"
    }, {
        "groupName": "GRUPO TRASMITELO -",
        "locationName": "",
        "streetAddress": "469 W 142nd St, New York, NY 10031, USA",
        "lat": 40.823305,
        "long": -73.948402,
        "meetingNotes": "Spanish speaking meeting.",
        "meetingTimes": "Thursdays,  8:00 PM to 9:00 PM (B = Beginners meeting),"
    }, {
        "groupName": "HARLEM HUMANISTS -",
        "locationName": "St. Mary's Episcopal",
        "streetAddress": "521 W 126th St, New York, NY 10027, USA",
        "lat": 40.8149739,
        "long": -73.9560186,
        "meetingNotes": "Contact in Advance for Wheelcahir Accessibility",
        "meetingTimes": "Mondays,  12:00 PM to 1:00 PM (O = Open meeting),  Special Interest Agnostic"
    }, {
        "groupName": "K.I.S.S. - Keep It Simple (Kiss)",
        "locationName": "SRO Building Community Room",
        "streetAddress": "109 W 129th St, New York, NY 10027, USA",
        "lat": 40.8107528,
        "long": -73.9441252,
        "meetingNotes": "All meetings are non-smoking.",
        "meetingTimes": "Sundays,  5:30 PM to 6:30 PM (S = Step meeting),  Sundays,  7:00 PM to 8:00 PM (B = Beginners meeting),"
    }, {
        "groupName": "LEARNING TO LIVE SOBER - Learning To Live Sober",
        "locationName": "Our Lady of Lourdes",
        "streetAddress": "469 W 142nd St, New York, NY 10031, USA",
        "lat": 40.823305,
        "long": -73.948402,
        "meetingNotes": null,
        "meetingTimes": "Thursdays,  6:00 PM to 7:00 PM (BB = Big Book meeting),"
    }, {
        "groupName": "LIVING CLEAN AND SOBER ON 121st STREET - Living Clean And Sober On 121st Street",
        "locationName": "",
        "streetAddress": "2044 7th Ave, New York, NY 10027, USA",
        "lat": 40.8072537,
        "long": -73.9497311,
        "meetingNotes": "S 2nd, BB 3rd, OD 4th, Living Sober 5th wk.",
        "meetingTimes": "Sundays,  6:00 PM to 7:30 PM (B = Beginners meeting),"
    }, {
        "groupName": "MEDITATION COMES TO HARLEM - Meditation Comes To Harlem",
        "locationName": "S.A.G.E.",
        "streetAddress": "127 W 127th St, New York, NY 10027, USA",
        "lat": 40.8099512,
        "long": -73.94574899999999,
        "meetingNotes": "Meeting is closed on holidays",
        "meetingTimes": "Mondays,  4:30 PM to 5:30 PM (C = Closed Discussion meeting),"
    }, {
        "groupName": "MID-HARLEM - Mid-Harlem",
        "locationName": "Grace Congregational Baptist Church",
        "streetAddress": "310 W 139th St, New York, NY 10030, USA",
        "lat": 40.8191319,
        "long": -73.9454349,
        "meetingNotes": "T 1st Monday at 7PM Open 1st Friday 8:10pm, Pitch other Fridays 8:10pm",
        "meetingTimes": "Mondays,  7:00 PM to 8:00 PM (S = Step meeting),  Fridays,  7:00 PM to 8:00 PM (B = Beginners meeting),  Fridays,  8:00 PM to 9:00 PM (O = Open meeting),"
    }, {
        "groupName": "MONDAY NIGHT CHALLENGE - Monday Night Challenge",
        "locationName": "St. James Church",
        "streetAddress": "409 W 141st St, New York, NY 10031, USA",
        "lat": 40.8215874,
        "long": -73.9463486,
        "meetingNotes": null,
        "meetingTimes": "Mondays,  7:00 PM to 8:00 PM (B = Beginners meeting),"
    }, {
        "groupName": "PRIMARY PURPOSE - Primary Purpose",
        "locationName": "Riverside Church",
        "streetAddress": "91 Claremont Ave, New York, NY 10027, USA",
        "lat": 40.8118487,
        "long": -73.9631608,
        "meetingNotes": null,
        "meetingTimes": "Sundays,  3:00 PM to 4:00 PM (OD = Open Discussion meeting),"
    }, {
        "groupName": "PROMISES TWO FOR ONE - Promises Two For One",
        "locationName": "Upper Manhattan Mental Health Center",
        "streetAddress": "1727 Amsterdam Ave, New York, NY 10031, USA",
        "lat": 40.8254215,
        "long": -73.946911,
        "meetingNotes": "1st Sun-OD; 2nd Sun-S; 3rd Sun-Topic; 4th Sun-T; 5th Sun-OD",
        "meetingTimes": "Sundays,  9:30 AM to 10:30 AM (B = Beginners meeting),  Sundays,  11:00 AM to 12:00 PM (C = Closed Discussion meeting),"
    }, {
        "groupName": "REALITY CHECK - Reality Check",
        "locationName": "Our Lady of Lourdes Church",
        "streetAddress": "469 W 142nd St, New York, NY 10031, USA",
        "lat": 40.823305,
        "long": -73.948402,
        "meetingNotes": "S 4th Saturday Men&apos;s Meeting",
        "meetingTimes": "Saturdays,  5:00 PM to 6:00 PM (OD = Open Discussion meeting),  Special Interest Men"
    }, {
        "groupName": "RIVERSIDE - Riverside",
        "locationName": "Riverside Church",
        "streetAddress": "91 Claremont Ave, New York, NY 10027, USA",
        "lat": 40.8118487,
        "long": -73.9631608,
        "meetingNotes": "Non-Smoking Meeting.",
        "meetingTimes": "Mondays,  7:00 PM to 8:00 PM (C = Closed Discussion meeting),"
    }, {
        "groupName": "RIVERTON - Riverton",
        "locationName": "St. Aloysius School",
        "streetAddress": "219 W 132nd St, New York, NY 10027, USA",
        "lat": 40.8139208,
        "long": -73.9458684,
        "meetingNotes": "S 2nd &amp; T 4th Tue All meetings are non-smoking.  No children allowed at meetings.",
        "meetingTimes": "Saturdays,  3:00 PM to 4:00 PM (B = Beginners meeting),  Saturdays,  6:00 PM to 7:00 PM (O = Open meeting),  Tuesdays,  8:00 PM to 9:00 PM"
    }, {
        "groupName": "SALEM - Salem",
        "locationName": "Salem United Methodist Church Community Center",
        "streetAddress": "211 W 129th St, New York, NY 10027, USA",
        "lat": 40.812,
        "long": -73.947053,
        "meetingNotes": "O 2nd Wednesday",
        "meetingTimes": "Wednesdays,  7:30 PM to 8:30 PM (C = Closed Discussion meeting),"
    }, {
        "groupName": "SOBER ADULT MEN - Sober Adult Men",
        "locationName": "Convent Baptist Church Education Building",
        "streetAddress": "425 W 144th St, New York, NY 10031, USA",
        "lat": 40.8239567,
        "long": -73.9462233,
        "meetingNotes": "Men&apos;s Meeting",
        "meetingTimes": "Wednesdays,  7:00 PM to 8:00 PM (C = Closed Discussion meeting),  Special Interest Men"
    }, {
        "groupName": "ST. NICHOLAS - St. Nicholas",
        "locationName": "St. Phillip's Church",
        "streetAddress": "204 W 134th St, New York, NY 10030, USA",
        "lat": 40.8146357,
        "long": -73.9450779,
        "meetingNotes": "S 2nd, C 3rd, BB 4th, &amp; Grapevine 5th Thu.",
        "meetingTimes": "Sundays,  4:00 PM to 5:00 PM (O = Open meeting),  Thursdays,  7:00 PM to 8:00 PM (B = Beginners meeting),"
    }, {
        "groupName": "STEPS 3 and 11 - Steps Three-Eleven",
        "locationName": "Harlem Hospital King Pavilion",
        "streetAddress": "506 Lenox Ave, New York, NY 10037, USA",
        "lat": 40.8141351,
        "long": -73.9397616,
        "meetingNotes": "B 1st, OD 2nd, S3 3rd, C Literature 4th, &amp; S11 5th Sun.",
        "meetingTimes": "Sundays,  2:00 PM to 3:00 PM (B = Beginners meeting),"
    }, {
        "groupName": "SUGAR HILL -",
        "locationName": "Council Center for Problems of Living",
        "streetAddress": "1727 Amsterdam Ave, New York, NY 10031, USA",
        "lat": 40.8254215,
        "long": -73.946911,
        "meetingNotes": null,
        "meetingTimes": "Fridays,  5:30 PM to 6:30 PM (B = Beginners meeting),"
    }, {
        "groupName": "TUESDAY BIG BOOK STUDY - Tuesday Big Book Study",
        "locationName": "",
        "streetAddress": "1854 Amsterdam Ave, New York, NY 10031, USA",
        "lat": 40.8296357,
        "long": -73.9447467,
        "meetingNotes": null,
        "meetingTimes": "Tuesdays,  6:00 PM to 7:00 PM (BB = Big Book meeting),"
    }, {
        "groupName": "UPTOWN BIG BOOK WORKSHOP -",
        "locationName": "Our Lady of Lourdes Church",
        "streetAddress": "469 W 142nd St, New York, NY 10031, USA",
        "lat": 40.823305,
        "long": -73.948402,
        "meetingNotes": "Meeting meets each Saturday from mid-August thru mid-December",
        "meetingTimes": "Saturdays,  9:30 AM to 11:00 AM (BB = Big Book meeting),  Special Interest Big Book Workshop"
    }, {
        "groupName": "YOU MAY CARE AFTER - You May Care After",
        "locationName": "Metropolitan AME Church",
        "streetAddress": "58 W 135th St, New York, NY 10037, USA",
        "lat": 40.81359399999999,
        "long": -73.94039099999999,
        "meetingNotes": "Non-Smoking Meeting.",
        "meetingTimes": "Tuesdays,  6:30 PM to 7:30 PM (S = Step meeting),"
    }]
}